{
"type": "FeatureCollection",
"name": "DOLEv0_March12",
"crs": { "type": "name", "properties": { "name": "urn:ogc:def:crs:OGC:1.3:CRS84" } },
"features": [
{ "type": "Feature", "properties": { "X": -121.83762, "Y": 37.50955, "FaultName": "Calaveras (north)", "FaultID": 923, "Reference": "Kelson et al. (1996)and Simpson et al. (1999)", "SiteName": "Welch/Leyden Creeks", "DOLEcal": 1740 }, "geometry": { "type": "Point", "coordinates": [ -121.83762, 37.50955 ] } },
{ "type": "Feature", "properties": { "X": -118.3441659, "Y": 33.81225372, "FaultName": "Compton", "FaultID": 43, "Reference": "Leonetal.(2009)", "SiteName": "Stanford Ave", "DOLEcal": 725 }, "geometry": { "type": "Point", "coordinates": [ -118.3441659, 33.81225372 ] } },
{ "type": "Feature", "properties": { "X": -117.4927163, "Y": 33.76865158, "FaultName": "Elsinore (Glen Ivy)", "FaultID": 844, "Reference": "Rockwell et al. (1986)and Dawson et al. (2008)", "SiteName": "Glen Ivy", "DOLEcal": 1910 }, "geometry": { "type": "Point", "coordinates": [ -117.4927163, 33.76865158 ] } },
{ "type": "Feature", "properties": { "X": -116.7273, "Y": 33.2071, "FaultName": "Elsinore (Julian)", "FaultID": 841, "Reference": "Thorup(1997)", "SiteName": "Julian", "DOLEcal": 200 }, "geometry": { "type": "Point", "coordinates": [ -116.7273, 33.2071 ] } },
{ "type": "Feature", "properties": { "X": -117.0433809, "Y": 33.40896246, "FaultName": "Elsinore (Temecula)", "FaultID": 842, "Reference": "Vaughanetal. (1999)", "SiteName": "Temecula", "DOLEcal": 1732 }, "geometry": { "type": "Point", "coordinates": [ -117.0433809, 33.40896246 ] } },
{ "type": "Feature", "properties": { "X": -117.6798568, "Y": 35.44286294, "FaultName": "Garlock (center)", "FaultID": 881, "Reference": "Dawson etal.  (2003)", "SiteName": "El Paso Peaks", "DOLEcal": 1545 }, "geometry": { "type": "Point", "coordinates": [ -117.6798568, 35.44286294 ] } },
{ "type": "Feature", "properties": { "X": -118.5063756, "Y": 34.98526688, "FaultName": "Garlock (west)", "FaultID": 880, "Reference": "Madden-Madugo etal.(2012)and Maddenetal. (2005)", "SiteName": "Twin Lakes", "DOLEcal": 1685 }, "geometry": { "type": "Point", "coordinates": [ -118.5063756, 34.98526688 ] } },
{ "type": "Feature", "properties": { "X": -122.1619, "Y": 38.2341, "FaultName": "Green Valley", "FaultID": 108, "Reference": "Lienkaemper etal.(2013)", "SiteName": "Mason Road", "DOLEcal": 1605 }, "geometry": { "type": "Point", "coordinates": [ -122.1619, 38.2341 ] } },
{ "type": "Feature", "properties": { "X": -122.2977, "Y": 37.9306, "FaultName": "Hayward (north)", "FaultID": 902, "Reference": "HPEG(1999) and Dawson et al. (2008)", "SiteName": "Mira Vista", "DOLEcal": 1713 }, "geometry": { "type": "Point", "coordinates": [ -122.2977, 37.9306 ] } },
{ "type": "Feature", "properties": { "X": -121.9739, "Y": 37.5563, "FaultName": "Hayward (south)", "FaultID": 901, "Reference": "Lienkaemper etal.(2010), Lienkaemperand Williams(2007) andLienkaemper etal.(2002)", "SiteName": "Tule Pond", "DOLEcal": 1868 }, "geometry": { "type": "Point", "coordinates": [ -121.9739, 37.5563 ] } },
{ "type": "Feature", "properties": { "X": -120.493659, "Y": 39.66518395, "FaultName": "Mohawk Valley", "FaultID": 171, "Reference": "Goldetal.(2014)", "SiteName": "Sulphur Creek", "DOLEcal": 70 }, "geometry": { "type": "Point", "coordinates": [ -120.493659, 39.66518395 ] } },
{ "type": "Feature", "properties": { "X": -123.6754368, "Y": 38.98217763, "FaultName": "San Andreas (North Coast)", "FaultID": 713, "Reference": "Baldwin(1996)", "SiteName": "Alder Creek", "DOLEcal": 1906 }, "geometry": { "type": "Point", "coordinates": [ -123.6754368, 38.98217763 ] } },
{ "type": "Feature", "properties": { "X": -123.2383259, "Y": 38.52084518, "FaultName": "San Andreas (North Coast)", "FaultID": 713, "Reference": "Kelson etal. (2006)", "SiteName": "Fort Ross Orchard", "DOLEcal": 1906 }, "geometry": { "type": "Point", "coordinates": [ -123.2383259, 38.52084518 ] } },
{ "type": "Feature", "properties": { "X": -122.7851367, "Y": 38.03431711, "FaultName": "San Andreas (North Coast)", "FaultID": 713, "Reference": "Zhang(2006)and Niemietal. (2002)", "SiteName": "Vedanta", "DOLEcal": 1906 }, "geometry": { "type": "Point", "coordinates": [ -122.7851367, 38.03431711 ] } },
{ "type": "Feature", "properties": { "X": -118.1114061, "Y": 33.91099534, "FaultName": "Puente Hills (Santa Fe Springs)", "FaultID": 221, "Reference": "Dolanetal. (2003)", "SiteName": "Sante Fe Springs-City of Bellflower", "DOLEcal": 1700 }, "geometry": { "type": "Point", "coordinates": [ -118.1114061, 33.91099534 ] } },
{ "type": "Feature", "properties": { "X": -122.5132838, "Y": 37.52106911, "FaultName": "San Gregorio (north)", "FaultID": 245, "Reference": "Simpsonetal. (1997)", "SiteName": "Seal Cove", "DOLEcal": 1754 }, "geometry": { "type": "Point", "coordinates": [ -122.5132838, 37.52106911 ] } },
{ "type": "Feature", "properties": { "X": -122.5351965, "Y": 38.26151868, "FaultName": "Rodgers Creek - Healdsburg", "FaultID": 903, "Reference": "Budding et al. (1991)and Hecker et al. (2005)", "SiteName": "Triangle G/Beebe Ranch", "DOLEcal": 1745 }, "geometry": { "type": "Point", "coordinates": [ -122.5351965, 38.26151868 ] } },
{ "type": "Feature", "properties": { "X": -117.1978325, "Y": 32.76029231, "FaultName": "Rose Canyon", "FaultID": 234, "Reference": "Singleton et al. (2019)", "SiteName": "Old Town", "DOLEcal": 1862 }, "geometry": { "type": "Point", "coordinates": [ -117.1978325, 32.76029231 ] } },
{ "type": "Feature", "properties": { "X": -116.7108586, "Y": 33.61292691, "FaultName": "San Jacinto (Anza)", "FaultID": 804, "Reference": "Rockwelletal. (2015)", "SiteName": "Hog Lake", "DOLEcal": 1918 }, "geometry": { "type": "Point", "coordinates": [ -116.7108586, 33.61292691 ] } },
{ "type": "Feature", "properties": { "X": -117.0940114, "Y": 33.90795447, "FaultName": "San Jacinto (San Jacinto Valley)", "FaultID": 806, "Reference": "Onderdonketal. (2018)and Onderdonketal. (2013)", "SiteName": "Mystic Lake", "DOLEcal": 1799 }, "geometry": { "type": "Point", "coordinates": [ -117.0940114, 33.90795447 ] } },
{ "type": "Feature", "properties": { "X": -115.9388391, "Y": 32.99907528, "FaultName": "San Jacinto (Superstition Mountain)", "FaultID": 800, "Reference": "Gurrolaand Rockwell(1996)", "SiteName": "Supertstition Mountain", "DOLEcal": 1540 }, "geometry": { "type": "Point", "coordinates": [ -115.9388391, 32.99907528 ] } },
{ "type": "Feature", "properties": { "X": -119.7846568, "Y": 35.23593099, "FaultName": "San Andreas (Carrizo)", "FaultID": 707, "Reference": "Akciz etal., (2009,2010)", "SiteName": "Bidart Fan", "DOLEcal": 1857 }, "geometry": { "type": "Point", "coordinates": [ -119.7846568, 35.23593099 ] } },
{ "type": "Feature", "properties": { "X": -116.8295568, "Y": 33.96860578, "FaultName": "San Andreas (San Bernardino, south)", "FaultID": 702, "Reference": "Yule and Sieh (2001)and Scharer and Yule (2020)", "SiteName": "Burro Flats", "DOLEcal": 1812 }, "geometry": { "type": "Point", "coordinates": [ -116.8295568, 33.96860578 ] } },
{ "type": "Feature", "properties": { "X": -116.7566061, "Y": 33.93290669, "FaultName": "San Andreas (San Gorgonio Pass - Garnet Hill)", "FaultID": 701, "Reference": "ScharerandYule (2020)", "SiteName": "Cabazon", "DOLEcal": 1259 }, "geometry": { "type": "Point", "coordinates": [ -116.7566061, 33.93290669 ] } },
{ "type": "Feature", "properties": { "X": -116.1718704, "Y": 33.72688138, "FaultName": "San Andreas (Coachella)", "FaultID": 700, "Reference": "Philibosianetal. (2011)and Rockwelletal. (2018)", "SiteName": "Coachella", "DOLEcal": 1690 }, "geometry": { "type": "Point", "coordinates": [ -116.1718704, 33.72688138 ] } },
{ "type": "Feature", "properties": { "X": -118.4011132, "Y": 34.65857655, "FaultName": "San Andreas (Mojave,  south)", "FaultID": 704, "Reference": "Bemis et al. (2021)", "SiteName": "Elizabeth Lake", "DOLEcal": 1857 }, "geometry": { "type": "Point", "coordinates": [ -118.4011132, 34.65857655 ] } },
{ "type": "Feature", "properties": { "X": -116.538, "Y": 33.9172, "FaultName": "San Andreas (Banning)", "FaultID": 715, "Reference": "Castillo et al. (2021)", "SiteName": "Eighteenth Avenue", "DOLEcal": 1109 }, "geometry": { "type": "Point", "coordinates": [ -116.538, 33.9172 ] } },
{ "type": "Feature", "properties": { "X": -118.9041318, "Y": 34.8097385, "FaultName": "San Andreas (Big Bend)", "FaultID": 706, "Reference": "Lindvalletal. (2002)and Schareretal. (2014,2017)", "SiteName": "Frazier Mountain", "DOLEcal": 1857 }, "geometry": { "type": "Point", "coordinates": [ -118.9041318, 34.8097385 ] } },
{ "type": "Feature", "properties": { "X": -116.1883735, "Y": 33.74048222, "FaultName": "San Andreas (Coachella)", "FaultID": 700, "Reference": "Sieh(1986)", "SiteName": "Indio", "DOLEcal": 1680 }, "geometry": { "type": "Point", "coordinates": [ -116.1883735, 33.74048222 ] } },
{ "type": "Feature", "properties": { "X": -117.8858636, "Y": 34.45782718, "FaultName": "San Andreas (Mojave,  south)", "FaultID": 704, "Reference": "Sieh(1978)and Schareretal. (2011)", "SiteName": "Pallett Creek", "DOLEcal": 1857 }, "geometry": { "type": "Point", "coordinates": [ -117.8858636, 34.45782718 ] } },
{ "type": "Feature", "properties": { "X": -117.4307582, "Y": 34.25853785, "FaultName": "San Andreas (San Bernardino, north)", "FaultID": 703, "Reference": "Seitzetal.(1996, 2000)", "SiteName": "Pitman Canyon", "DOLEcal": 1812 }, "geometry": { "type": "Point", "coordinates": [ -117.4307582, 34.25853785 ] } },
{ "type": "Feature", "properties": { "X": -117.1358109, "Y": 34.11809769, "FaultName": "San Andreas (San Bernadino, south)", "FaultID": 702, "Reference": "McGilletal. (2002)", "SiteName": "Plunge Creek", "DOLEcal": 1812 }, "geometry": { "type": "Point", "coordinates": [ -117.1358109, 34.11809769 ] } },
{ "type": "Feature", "properties": { "X": -116.3094, "Y": 33.8376, "FaultName": "Mill Creek (San Andreas, north branch)", "FaultID": 166, "Reference": "Fumal et al. (2002)", "SiteName": "Thousand Palms", "DOLEcal": 1680 }, "geometry": { "type": "Point", "coordinates": [ -116.3094, 33.8376 ] } },
{ "type": "Feature", "properties": { "X": -117.6693825, "Y": 34.3673355, "FaultName": "San Andreas (Mojave,  south)", "FaultID": 704, "Reference": "Fumaletal. (2002b)", "SiteName": "Wrightwood", "DOLEcal": 1857 }, "geometry": { "type": "Point", "coordinates": [ -117.6693825, 34.3673355 ] } },
{ "type": "Feature", "properties": { "X": -112.0090592, "Y": 41.53563055, "FaultName": "Wasatch (Brigham City)", "FaultID": 2780, "Reference": "DuRoss et al 2012 (WGUEP)", "SiteName": "Kotter Canyon", "DOLEcal": -550 }, "geometry": { "type": "Point", "coordinates": [ -112.0090592, 41.53563055 ] } },
{ "type": "Feature", "properties": { "X": -111.9987916, "Y": 41.52292347, "FaultName": "Wasatch (Brigham City)", "FaultID": 2780, "Reference": "Personious 1991a (WGUEP)", "SiteName": "Bowden Canyon", "DOLEcal": -650 }, "geometry": { "type": "Point", "coordinates": [ -111.9987916, 41.52292347 ] } },
{ "type": "Feature", "properties": { "X": -111.9287022, "Y": 41.24144543, "FaultName": "Wasatch (Weber)", "FaultID": 2781, "Reference": "Nelson 1988; Nelson et al 2006 (WGUEP)", "SiteName": "East Ogden", "DOLEcal": 1450 }, "geometry": { "type": "Point", "coordinates": [ -111.9287022, 41.24144543 ] } },
{ "type": "Feature", "properties": { "X": -111.9354955, "Y": 41.3223989, "FaultName": "Wasatch (Weber)", "FaultID": 2781, "Reference": "DuRoss et al 2009 (WGUEP)", "SiteName": "Rice Canyon", "DOLEcal": 1350 }, "geometry": { "type": "Point", "coordinates": [ -111.9354955, 41.3223989 ] } },
{ "type": "Feature", "properties": { "X": -111.9470917, "Y": 41.28159541, "FaultName": "Wasatch (Weber)", "FaultID": 2781, "Reference": "Nelson 1988; Nelson et al 2006 (WGUEP)", "SiteName": "Garner Canyon", "DOLEcal": 1350 }, "geometry": { "type": "Point", "coordinates": [ -111.9470917, 41.28159541 ] } },
{ "type": "Feature", "properties": { "X": -111.9903869, "Y": 41.50327447, "FaultName": "Wasatch (Brigham City)", "FaultID": 2780, "Reference": "McCalpin and Forman (2002) (WGUEP) - also Personious et al 2012?", "SiteName": "Box Elder Creek", "DOLEcal": -250 }, "geometry": { "type": "Point", "coordinates": [ -111.9903869, 41.50327447 ] } },
{ "type": "Feature", "properties": { "X": -111.896643, "Y": 41.01563377, "FaultName": "Wasatch (Weber)", "FaultID": 2781, "Reference": "Swan et al 1980, 1981; McCalpin et al 1994 (WGUEP)", "SiteName": "Kaysville", "DOLEcal": 1350 }, "geometry": { "type": "Point", "coordinates": [ -111.896643, 41.01563377 ] } },
{ "type": "Feature", "properties": { "X": -111.844725, "Y": 40.77270084, "FaultName": "Wasatch (East Bench)", "FaultID": 2782, "Reference": "DuRoss et al 2014", "SiteName": "Penrose Drive", "DOLEcal": -2050 }, "geometry": { "type": "Point", "coordinates": [ -111.844725, 40.77270084 ] } },
{ "type": "Feature", "properties": { "X": -111.7949442, "Y": 40.57968296, "FaultName": "Wasatch (Salt Lake City, south)", "FaultID": 2793, "Reference": "Swan et al 1981; McCalpin 2002", "SiteName": "Little Cottonwood Canyon", "DOLEcal": 650 }, "geometry": { "type": "Point", "coordinates": [ -111.7949442, 40.57968296 ] } },
{ "type": "Feature", "properties": { "X": -111.802284, "Y": 40.54990502, "FaultName": "Wasatch (Salt Lake City, south)", "FaultID": 2793, "Reference": "Schwartz and Lund 1988; Black et al 1996", "SiteName": "South Fork Dry Creek", "DOLEcal": 650 }, "geometry": { "type": "Point", "coordinates": [ -111.802284, 40.54990502 ] } },
{ "type": "Feature", "properties": { "X": -111.7508096, "Y": 40.42683146, "FaultName": "Wasatch (Provo, north)", "FaultID": 2783, "Reference": "Forman et al 1989; Machette et al 1992", "SiteName": "American Fork", "DOLEcal": 1550 }, "geometry": { "type": "Point", "coordinates": [ -111.7508096, 40.42683146 ] } },
{ "type": "Feature", "properties": { "X": -111.5662236, "Y": 40.10902681, "FaultName": "Wasatch (Provo, south)", "FaultID": 2790, "Reference": "Lund et al 1991; Olig et al 2011", "SiteName": "Mapleton North", "DOLEcal": 1350 }, "geometry": { "type": "Point", "coordinates": [ -111.5662236, 40.10902681 ] } },
{ "type": "Feature", "properties": { "X": -111.7600655, "Y": 39.98146423, "FaultName": "Wasatch (Nephi, north)", "FaultID": 2787, "Reference": "DuRoss et al 2008", "SiteName": "Santaquin Canyon", "DOLEcal": 1650 }, "geometry": { "type": "Point", "coordinates": [ -111.7600655, 39.98146423 ] } },
{ "type": "Feature", "properties": { "X": -111.8050267, "Y": 39.85523837, "FaultName": "Wasatch (Nephi, south)", "FaultID": 2784, "Reference": "Hanson et al 1981, 1982a", "SiteName": "North Creek", "DOLEcal": 1550 }, "geometry": { "type": "Point", "coordinates": [ -111.8050267, 39.85523837 ] } },
{ "type": "Feature", "properties": { "X": -111.819229, "Y": 39.79831951, "FaultName": "Wasatch (Nephi, south)", "FaultID": 2784, "Reference": "Machette et al 2007", "SiteName": "Willow Creek", "DOLEcal": 1750 }, "geometry": { "type": "Point", "coordinates": [ -111.819229, 39.79831951 ] } },
{ "type": "Feature", "properties": { "X": -111.8276106, "Y": 39.74135908, "FaultName": "Wasatch (Nephi, south)", "FaultID": 2784, "Reference": "Jackson 1991", "SiteName": "Red Canyon", "DOLEcal": 1450 }, "geometry": { "type": "Point", "coordinates": [ -111.8276106, 39.74135908 ] } },
{ "type": "Feature", "properties": { "X": -111.7325361, "Y": 40.00857407, "FaultName": "Wasatch (Nephi, north)", "FaultID": 2787, "Reference": "DuRoss et al 2016", "SiteName": "Spring Lake", "DOLEcal": 1070 }, "geometry": { "type": "Point", "coordinates": [ -111.7325361, 40.00857407 ] } },
{ "type": "Feature", "properties": { "X": -111.8356011, "Y": 40.50303757, "FaultName": "Wasatch (Salt Lake City, south)", "FaultID": 2793, "Reference": "DuRoss et al 2018", "SiteName": "Corner Canyon", "DOLEcal": 1500 }, "geometry": { "type": "Point", "coordinates": [ -111.8356011, 40.50303757 ] } },
{ "type": "Feature", "properties": { "X": -111.7480863, "Y": 40.48089596, "FaultName": "Wasatch (Provo, north)", "FaultID": 2783, "Reference": "Bennett et al 2018", "SiteName": "Alpine", "DOLEcal": 1580 }, "geometry": { "type": "Point", "coordinates": [ -111.7480863, 40.48089596 ] } },
{ "type": "Feature", "properties": { "X": -111.5686165, "Y": 40.10507351, "FaultName": "Wasatch (Provo, south)", "FaultID": 2790, "Reference": "Lund et al 1991", "SiteName": "Mapleton South", "DOLEcal": 1250 }, "geometry": { "type": "Point", "coordinates": [ -111.5686165, 40.10507351 ] } },
{ "type": "Feature", "properties": { "X": -111.633069, "Y": 40.26899524, "FaultName": "Wasatch (Provo, south)", "FaultID": 2790, "Reference": "Lund and Black 1998 (WGUEP)", "SiteName": "Rock Canyon", "DOLEcal": 1350 }, "geometry": { "type": "Point", "coordinates": [ -111.633069, 40.26899524 ] } },
{ "type": "Feature", "properties": { "X": -112.02566, "Y": 41.38151, "FaultName": "Wasatch (Brigham City)", "FaultID": 2780, "Reference": "DuRoss et al 2012 (WGUEP)", "SiteName": "Pearson Canyon", "DOLEcal": 750 }, "geometry": { "type": "Point", "coordinates": [ -112.02566, 41.38151 ] } },
{ "type": "Feature", "properties": { "X": -111.9798506, "Y": 41.34767989, "FaultName": "Wasatch (Brigham City)", "FaultID": 2780, "Reference": "Personious et al 1991b (WGUEP)", "SiteName": "Pole Patch", "DOLEcal": -2650 }, "geometry": { "type": "Point", "coordinates": [ -111.9798506, 41.34767989 ] } },
{ "type": "Feature", "properties": { "X": -112.0127051, "Y": 41.54621643, "FaultName": "Wasatch (Brigham City)", "FaultID": 2780, "Reference": "DuRoss et al 2012 (WGUEP)", "SiteName": "Hansen Canyon", "DOLEcal": -1200 }, "geometry": { "type": "Point", "coordinates": [ -112.0127051, 41.54621643 ] } },
{ "type": "Feature", "properties": { "X": -122.1222661, "Y": 38.13266222, "FaultName": "Green Valley", "FaultID": 108, "Reference": "UCERF3 Appendix G", "SiteName": "Lopes Ranch", "DOLEcal": 1615 }, "geometry": { "type": "Point", "coordinates": [ -122.1222661, 38.13266222 ] } },
{ "type": "Feature", "properties": { "X": -124.2013468, "Y": 40.69800546, "FaultName": "Little Salmon (onshore)", "FaultID": 147, "Reference": "UCERF3 Appendix G", "SiteName": "College of the Redwoods", "DOLEcal": 1656 }, "geometry": { "type": "Point", "coordinates": [ -124.2013468, 40.69800546 ] } },
{ "type": "Feature", "properties": { "X": -124.1824245, "Y": 40.65586685, "FaultName": "Little Salmon (onshore)", "FaultID": 147, "Reference": "UCERF3 Appendix G", "SiteName": "Little Salmon Creek", "DOLEcal": 1656 }, "geometry": { "type": "Point", "coordinates": [ -124.1824245, 40.65586685 ] } },
{ "type": "Feature", "properties": { "X": -116.8739299, "Y": 34.36918073, "FaultName": "North Frontal (west)", "FaultID": 186, "Reference": "UCERF3 Appendix G", "SiteName": "Marble Canyon", "DOLEcal": -9220 }, "geometry": { "type": "Point", "coordinates": [ -116.8739299, 34.36918073 ] } },
{ "type": "Feature", "properties": { "X": -119.9629199, "Y": 39.24902874, "FaultName": "Incline Village", "FaultID": 1002, "Reference": "Seitz and Kent (2004); UCERF3 Appendix G", "SiteName": "North Tahoe Basin", "DOLEcal": 1500 }, "geometry": { "type": "Point", "coordinates": [ -119.9629199, 39.24902874 ] } },
{ "type": "Feature", "properties": { "X": -117.1669799, "Y": 35.85848987, "FaultName": "Panamint Valley", "FaultID": 204, "Reference": "McAullife et al 2013", "SiteName": "Goler Wash", "DOLEcal": 1545 }, "geometry": { "type": "Point", "coordinates": [ -117.1669799, 35.85848987 ] } },
{ "type": "Feature", "properties": { "X": -122.3143819, "Y": 37.47250742, "FaultName": "San Andreas (Peninsula)", "FaultID": 712, "Reference": "UCERF3 Appendix G", "SiteName": "Filoli", "DOLEcal": 1906 }, "geometry": { "type": "Point", "coordinates": [ -122.3143819, 37.47250742 ] } },
{ "type": "Feature", "properties": { "X": -121.6244923, "Y": 36.90933401, "FaultName": "San Andreas (Santa Cruz Mountains)", "FaultID": 711, "Reference": "UCERF3 Appendix G", "SiteName": "Arano Flat/Mill Canyon", "DOLEcal": 1906 }, "geometry": { "type": "Point", "coordinates": [ -121.6244923, 36.90933401 ] } },
{ "type": "Feature", "properties": { "X": -121.7423119, "Y": 37.00007045, "FaultName": "San Andreas (Santa Cruz Mountains)", "FaultID": 711, "Reference": "Fumal 2012; Streig et al 2014", "SiteName": "Hazel Dell", "DOLEcal": 1906 }, "geometry": { "type": "Point", "coordinates": [ -121.7423119, 37.00007045 ] } },
{ "type": "Feature", "properties": { "X": -118.8158693, "Y": 34.41158657, "FaultName": "San Cayetano", "FaultID": 237, "Reference": "Dolan and Rockwell 2001", "SiteName": "Piru", "DOLEcal": 1660 }, "geometry": { "type": "Point", "coordinates": [ -118.8158693, 34.41158657 ] } },
{ "type": "Feature", "properties": { "X": -116.824571, "Y": 33.6840761, "FaultName": "San Jacinto (Anza)", "FaultID": 804, "Reference": "Salisbury et al 2012", "SiteName": "Blackburn Canyon", "DOLEcal": 1800 }, "geometry": { "type": "Point", "coordinates": [ -116.824571, 33.6840761 ] } },
{ "type": "Feature", "properties": { "X": -116.1945434, "Y": 33.30773877, "FaultName": "San Jacinto (Clark)", "FaultID": 803, "Reference": "Salisbury et al 2012", "SiteName": "Lute Ridge", "DOLEcal": 1790 }, "geometry": { "type": "Point", "coordinates": [ -116.1945434, 33.30773877 ] } },
{ "type": "Feature", "properties": { "X": -117.8099512, "Y": 34.13098293, "FaultName": "Sierra Madre", "FaultID": 275, "Reference": "Tucker and Dolan 2001", "SiteName": "San Dimas", "DOLEcal": -12716 }, "geometry": { "type": "Point", "coordinates": [ -117.8099512, 34.13098293 ] } },
{ "type": "Feature", "properties": { "X": -117.8461349, "Y": 33.92752109, "FaultName": "Whittier", "FaultID": 300, "Reference": "UCERF3 Appendix G", "SiteName": "Whittier", "DOLEcal": 150 }, "geometry": { "type": "Point", "coordinates": [ -117.8461349, 33.92752109 ] } },
{ "type": "Feature", "properties": { "X": -111.6995669, "Y": 33.98451889, "FaultName": "Horseshoe", "FaultID": 2035, "Reference": "Piety and Anderson (1990)", "SiteName": "Horeshoe Dam", "DOLEcal": -13050 }, "geometry": { "type": "Point", "coordinates": [ -111.6995669, 33.98451889 ] } },
{ "type": "Feature", "properties": { "X": -113.2523618, "Y": 36.61388142, "FaultName": "Hurricane (center)", "FaultID": 2004, "Reference": "Amoros et al 2004", "SiteName": "Boulder Fan", "DOLEcal": -7700 }, "geometry": { "type": "Point", "coordinates": [ -113.2523618, 36.61388142 ] } },
{ "type": "Feature", "properties": { "X": -105.8048542, "Y": 38.16028185, "FaultName": "Sangre de Cristo (Crestone, Blanca, Zapata, San Luis)", "FaultID": 2101, "Reference": "McCalpin 1982", "SiteName": "Major Creek", "DOLEcal": -5650 }, "geometry": { "type": "Point", "coordinates": [ -105.8048542, 38.16028185 ] } },
{ "type": "Feature", "properties": { "X": -111.3890899, "Y": 42.1904239, "FaultName": "Western Bear Lake", "FaultID": 2231, "Reference": "McCalpin (2003)", "SiteName": "Bloomington", "DOLEcal": -4747 }, "geometry": { "type": "Point", "coordinates": [ -111.3890899, 42.1904239 ] } },
{ "type": "Feature", "properties": { "X": -111.2635566, "Y": 41.98956844, "FaultName": "Eastern Bear Lake", "FaultID": 2203, "Reference": "McCalpin (2003)", "SiteName": "North Eden Creek", "DOLEcal": -169 }, "geometry": { "type": "Point", "coordinates": [ -111.2635566, 41.98956844 ] } },
{ "type": "Feature", "properties": { "X": -113.1353646, "Y": 44.0313216, "FaultName": "Lemhi (Fallert Springs, Howe)", "FaultID": 2225, "Reference": "Hemphill-Haley et al 1992", "SiteName": "Coyote Springs", "DOLEcal": -2550 }, "geometry": { "type": "Point", "coordinates": [ -113.1353646, 44.0313216 ] } },
{ "type": "Feature", "properties": { "X": -116.106578, "Y": 42.73171865, "FaultName": "Owyhee Mountains - Halfway Gulch", "FaultID": 2227, "Reference": "Beukleman (1997)", "SiteName": "Water Tank trench (basinward scarp)", "DOLEcal": -1050 }, "geometry": { "type": "Point", "coordinates": [ -116.106578, 42.73171865 ] } },
{ "type": "Feature", "properties": { "X": -116.3173084, "Y": 44.20155197, "FaultName": "Squaw Creek", "FaultID": 2208, "Reference": "Gilbert et al., 1983", "SiteName": "Ola", "DOLEcal": -4750 }, "geometry": { "type": "Point", "coordinates": [ -116.3173084, 44.20155197 ] } },
{ "type": "Feature", "properties": { "X": -110.845043, "Y": 43.5842131, "FaultName": "Teton", "FaultID": 2907, "Reference": "DuRoss et al.,  2019", "SiteName": "Buffalo Bowl", "DOLEcal": -2650 }, "geometry": { "type": "Point", "coordinates": [ -110.845043, 43.5842131 ] } },
{ "type": "Feature", "properties": { "X": -107.0845859, "Y": 34.02554579, "FaultName": "La Jencia", "FaultID": 2413, "Reference": "Machette (1988)", "SiteName": "Trench 1", "DOLEcal": -3550 }, "geometry": { "type": "Point", "coordinates": [ -107.0845859, 34.02554579 ] } },
{ "type": "Feature", "properties": { "X": -106.3436113, "Y": 35.87944472, "FaultName": "Pajarito", "FaultID": 2418, "Reference": "McCalpin (2005)", "SiteName": "Los Alamos Canyon", "DOLEcal": -850 }, "geometry": { "type": "Point", "coordinates": [ -106.3436113, 35.87944472 ] } },
{ "type": "Feature", "properties": { "X": -119.8428721, "Y": 38.94845588, "FaultName": "Genoa (north)", "FaultID": 1172, "Reference": "Ramelli et al 1999", "SiteName": "Woodfords", "DOLEcal": 1400 }, "geometry": { "type": "Point", "coordinates": [ -119.8428721, 38.94845588 ] } },
{ "type": "Feature", "properties": { "X": -119.0438119, "Y": 40.20212146, "FaultName": "Granite Springs Valley", "FaultID": 1057, "Reference": "Wesnousky et al (2005)", "SiteName": "Shawave-BlueWing Combined", "DOLEcal": -3503 }, "geometry": { "type": "Point", "coordinates": [ -119.0438119, 40.20212146 ] } },
{ "type": "Feature", "properties": { "X": -118.9998822, "Y": 39.69504214, "FaultName": "Hot Springs Mountains", "FaultID": 1177, "Reference": "Wesnousky et al., (2005)", "SiteName": "Bradys", "DOLEcal": -13050 }, "geometry": { "type": "Point", "coordinates": [ -118.9998822, 39.69504214 ] } },
{ "type": "Feature", "properties": { "X": -118.2480057, "Y": 40.51710819, "FaultName": "Western Humboldt Range", "FaultID": 1123, "Reference": "Wesnousky et al 2005", "SiteName": "Humboldt", "DOLEcal": -2312 }, "geometry": { "type": "Point", "coordinates": [ -118.2480057, 40.51710819 ] } },
{ "type": "Feature", "properties": { "X": -117.6752937, "Y": 40.7383814, "FaultName": "Grass Valley", "FaultID": 1058, "Reference": "Wesnousky et al 2005", "SiteName": "Sonoma", "DOLEcal": -18077 }, "geometry": { "type": "Point", "coordinates": [ -117.6752937, 40.7383814 ] } },
{ "type": "Feature", "properties": { "X": -116.8966972, "Y": 40.46426385, "FaultName": "Shoshone Range", "FaultID": 1108, "Reference": "Wesnousky et al., 2005", "SiteName": "Lewis Canyon Trench 2", "DOLEcal": -1367 }, "geometry": { "type": "Point", "coordinates": [ -116.8966972, 40.46426385 ] } },
{ "type": "Feature", "properties": { "X": -116.44331, "Y": 40.63468, "FaultName": "Beowawe", "FaultID": 1007, "Reference": "Wesnousky et al 2005", "SiteName": "Malpais", "DOLEcal": -5500 }, "geometry": { "type": "Point", "coordinates": [ -116.44331, 40.63468 ] } },
{ "type": "Feature", "properties": { "X": -116.48923, "Y": 40.43378, "FaultName": "Dry Hills", "FaultID": 1155, "Reference": "Wesnousky et al., (2005)", "SiteName": "North Trench", "DOLEcal": -3050 }, "geometry": { "type": "Point", "coordinates": [ -116.48923, 40.43378 ] } },
{ "type": "Feature", "properties": { "X": -114.6315647, "Y": 40.86711678, "FaultName": "Independence Valley", "FaultID": 1063, "Reference": "Wesnousky et al., 2005", "SiteName": "Pequops", "DOLEcal": -26050 }, "geometry": { "type": "Point", "coordinates": [ -114.6315647, 40.86711678 ] } },
{ "type": "Feature", "properties": { "X": -117.729356, "Y": 41.52120546, "FaultName": "Santa Rosa Range (south)", "FaultID": 2573, "Reference": "Personius et al (2017) and ref therein", "SiteName": "SRR1", "DOLEcal": -11550 }, "geometry": { "type": "Point", "coordinates": [ -117.729356, 41.52120546 ] } },
{ "type": "Feature", "properties": { "X": -118.7630978, "Y": 41.83064251, "FaultName": "Steens (south)", "FaultID": 2575, "Reference": "Personius et al., 2017 and ref within - Personius et al 2006;2007", "SiteName": "Bog Hot Valley", "DOLEcal": -2650 }, "geometry": { "type": "Point", "coordinates": [ -118.7630978, 41.83064251 ] } },
{ "type": "Feature", "properties": { "X": -120.1832143, "Y": 41.57536729, "FaultName": "Surprise Valley", "FaultID": 284, "Reference": "Personius et al 2017 and refs therein", "SiteName": "Cooks Canyon", "DOLEcal": 750 }, "geometry": { "type": "Point", "coordinates": [ -120.1832143, 41.57536729 ] } },
{ "type": "Feature", "properties": { "X": -120.1809318, "Y": 41.46943126, "FaultName": "Surprise Valley", "FaultID": 284, "Reference": "Personius et al., 2017 and references therein", "SiteName": "Steamboat Canyon fault exposure", "DOLEcal": 750 }, "geometry": { "type": "Point", "coordinates": [ -120.1809318, 41.46943126 ] } },
{ "type": "Feature", "properties": { "X": -120.2995077, "Y": 47.62005464, "FaultName": "Spencer Canyon", "FaultID": 2843, "Reference": "Sherrod et al., 2021", "SiteName": "Sites 2 & 3", "DOLEcal": 1872 }, "geometry": { "type": "Point", "coordinates": [ -120.2995077, 47.62005464 ] } },
{ "type": "Feature", "properties": { "X": -119.5071124, "Y": 39.58474099, "FaultName": "Olinghouse", "FaultID": 1195, "Reference": "Briggs & Wesnousky, 2005", "SiteName": "T2", "DOLEcal": 15 }, "geometry": { "type": "Point", "coordinates": [ -119.5071124, 39.58474099 ] } },
{ "type": "Feature", "properties": { "X": -119.3766647, "Y": 39.78393632, "FaultName": "Pyramid Lake", "FaultID": 1094, "Reference": "Briggs & Wesnousky, 2005", "SiteName": "Secret Canyon", "DOLEcal": 1022 }, "geometry": { "type": "Point", "coordinates": [ -119.3766647, 39.78393632 ] } },
{ "type": "Feature", "properties": { "X": -110.7361833, "Y": 43.80580063, "FaultName": "Teton", "FaultID": 2907, "Reference": "Zellman et al., 2020", "SiteName": "Leigh Lake", "DOLEcal": -3950 }, "geometry": { "type": "Point", "coordinates": [ -110.7361833, 43.80580063 ] } },
{ "type": "Feature", "properties": { "X": -110.6982541, "Y": 44.03248168, "FaultName": "Teton", "FaultID": 2907, "Reference": "DuRoss et al., 2021", "SiteName": "Steamboat Mountain", "DOLEcal": -3550 }, "geometry": { "type": "Point", "coordinates": [ -110.6982541, 44.03248168 ] } },
{ "type": "Feature", "properties": { "X": -112.2457695, "Y": 40.66463073, "FaultName": "Oquirrh", "FaultID": 2709, "Reference": "Olig et al 1996", "SiteName": "Big Canyon", "DOLEcal": -4400 }, "geometry": { "type": "Point", "coordinates": [ -112.2457695, 40.66463073 ] } },
{ "type": "Feature", "properties": { "X": -112.0936459, "Y": 41.9313655, "FaultName": "West Cache (Clarkston)", "FaultID": 2714, "Reference": "Black et al.,  2000", "SiteName": "Winter Canyon", "DOLEcal": -1850 }, "geometry": { "type": "Point", "coordinates": [ -112.0936459, 41.9313655 ] } },
{ "type": "Feature", "properties": { "X": -112.0159766, "Y": 41.81354441, "FaultName": "West Cache (Junction Hills)", "FaultID": 2716, "Reference": "Black et al., 2000", "SiteName": "Roudy Farm", "DOLEcal": -6500 }, "geometry": { "type": "Point", "coordinates": [ -112.0159766, 41.81354441 ] } },
{ "type": "Feature", "properties": { "X": -112.0194571, "Y": 41.71313989, "FaultName": "West Cache (Wellsville)", "FaultID": 2715, "Reference": "Black et al., 2000", "SiteName": "Deep Creek", "DOLEcal": -2650 }, "geometry": { "type": "Point", "coordinates": [ -112.0194571, 41.71313989 ] } },
{ "type": "Feature", "properties": { "X": -111.9864409, "Y": 40.73133403, "FaultName": "West Valley", "FaultID": 2717, "Reference": "DuRoss and Hylland 2015", "SiteName": "Terracon", "DOLEcal": 550 }, "geometry": { "type": "Point", "coordinates": [ -111.9864409, 40.73133403 ] } },
{ "type": "Feature", "properties": { "X": -122.5244782, "Y": 47.59524599, "FaultName": "Seattle (middle)", "FaultID": 2881, "Reference": "Nelson et al., 2002", "SiteName": "multiple trench sites", "DOLEcal": 915 }, "geometry": { "type": "Point", "coordinates": [ -122.5244782, 47.59524599 ] } },
{ "type": "Feature", "properties": { "X": -122.0946542, "Y": 48.91296574, "FaultName": "Boulder Creek (Kendall)", "FaultID": 2800, "Reference": "Sherrod et al., 2013", "SiteName": "Hornet", "DOLEcal": 1125 }, "geometry": { "type": "Point", "coordinates": [ -122.0946542, 48.91296574 ] } },
{ "type": "Feature", "properties": { "X": -122.1917885, "Y": 48.34478799, "FaultName": "Devils Mountain", "FaultID": 2801, "Reference": "Personious et al., 2014", "SiteName": "Aplodontia-Springboard", "DOLEcal": 50 }, "geometry": { "type": "Point", "coordinates": [ -122.1917885, 48.34478799 ] } },
{ "type": "Feature", "properties": { "X": -122.1333548, "Y": 47.80055323, "FaultName": "Southern Whidbey Island (middle)", "FaultID": 2891, "Reference": "Sherrod et al 2008", "SiteName": "Beef Barley (approx)", "DOLEcal": -780 }, "geometry": { "type": "Point", "coordinates": [ -122.1333548, 47.80055323 ] } },
{ "type": "Feature", "properties": { "X": -123.1641275, "Y": 47.47000267, "FaultName": "Canyon River - Price Lake (northeast)", "FaultID": 2829, "Reference": "Black et al., 2023", "SiteName": "Price Lake", "DOLEcal": 923 }, "geometry": { "type": "Point", "coordinates": [ -123.1641275, 47.47000267 ] } },
{ "type": "Feature", "properties": { "X": -112.274002, "Y": 40.30055175, "FaultName": "Southern Oquirrh Mountains", "FaultID": 2772, "Reference": "Olig et al., 2001", "SiteName": "Mercur", "DOLEcal": -1115 }, "geometry": { "type": "Point", "coordinates": [ -112.274002, 40.30055175 ] } },
{ "type": "Feature", "properties": { "X": -106.1821107, "Y": 38.70729798, "FaultName": "Sawatch (south)", "FaultID": 2102, "Reference": "Ostenaa et al.,  1981", "SiteName": "Eddy", "DOLEcal": -2050 }, "geometry": { "type": "Point", "coordinates": [ -106.1821107, 38.70729798 ] } },
{ "type": "Feature", "properties": { "X": -106.2082224, "Y": 38.81139742, "FaultName": "Sawatch (south)", "FaultID": 2102, "Reference": "Ostenaa et al.,  1981", "SiteName": "Cottonwood", "DOLEcal": -2050 }, "geometry": { "type": "Point", "coordinates": [ -106.2082224, 38.81139742 ] } },
{ "type": "Feature", "properties": { "X": -111.7912262, "Y": 41.73339104, "FaultName": "East Cache", "FaultID": 2700, "Reference": "McCalpin 1994", "SiteName": "Provo and Bonneville", "DOLEcal": -2050 }, "geometry": { "type": "Point", "coordinates": [ -111.7912262, 41.73339104 ] } },
{ "type": "Feature", "properties": { "X": -110.9213624, "Y": 42.72078588, "FaultName": "Grand Valley", "FaultID": 2903, "Reference": "McCalpin 1993", "SiteName": "Afton", "DOLEcal": -3590 }, "geometry": { "type": "Point", "coordinates": [ -110.9213624, 42.72078588 ] } },
{ "type": "Feature", "properties": { "X": -123.2483481, "Y": 45.56386986, "FaultName": "Gales Creek (Parsons Creek)", "FaultID": 2514, "Reference": "Horst et al.,  2021", "SiteName": "Clear Creek", "DOLEcal": 1011 }, "geometry": { "type": "Point", "coordinates": [ -123.2483481, 45.56386986 ] } },
{ "type": "Feature", "properties": { "X": -122.7540558, "Y": 47.36781776, "FaultName": "Tacoma", "FaultID": 2810, "Reference": "Nelson et al., 2008", "SiteName": "Micah (approx)", "DOLEcal": 700 }, "geometry": { "type": "Point", "coordinates": [ -122.7540558, 47.36781776 ] } },
{ "type": "Feature", "properties": { "X": -123.4891791, "Y": 47.38308143, "FaultName": "Canyon River", "FaultID": 2828, "Reference": "Logan and Walsh 2007", "SiteName": "TR-1", "DOLEcal": 70 }, "geometry": { "type": "Point", "coordinates": [ -123.4891791, 47.38308143 ] } },
{ "type": "Feature", "properties": { "X": -113.9150815, "Y": 44.24294961, "FaultName": "Lost River", "FaultID": 2205, "Reference": "DuRoss et al 2022", "SiteName": "Arenston Gulch", "DOLEcal": -4850 }, "geometry": { "type": "Point", "coordinates": [ -113.9150815, 44.24294961 ] } },
{ "type": "Feature", "properties": { "X": -113.9422256, "Y": 44.28147193, "FaultName": "Lost River", "FaultID": 2205, "Reference": "DuRoss et al 2022", "SiteName": "Sheep Creek", "DOLEcal": -4850 }, "geometry": { "type": "Point", "coordinates": [ -113.9422256, 44.28147193 ] } },
{ "type": "Feature", "properties": { "X": -116.2895807, "Y": 33.80576559, "FaultName": "San Andreas (San Gorgonio Pass - Garnet Hill)", "FaultID": 701, "Reference": "Scharer and Yule 2020; Earth Systems Southwest 2007", "SiteName": "Pushawalla", "DOLEcal": 1346 }, "geometry": { "type": "Point", "coordinates": [ -116.2895807, 33.80576559 ] } },
{ "type": "Feature", "properties": { "X": -115.8359552, "Y": 33.44393176, "FaultName": "San Andreas (Coachella)", "FaultID": 700, "Reference": "Scharer and Yule, 2020; Seitz and Williams (2008)", "SiteName": "Salt Creek", "DOLEcal": 1726 }, "geometry": { "type": "Point", "coordinates": [ -115.8359552, 33.44393176 ] } },
{ "type": "Feature", "properties": { "X": -116.2618332, "Y": 33.35606247, "FaultName": "San Jacinto (Clark)", "FaultID": 803, "Reference": "Scharer and Yule 2020; Buga, 2012; 2015", "SiteName": "Clark Lake", "DOLEcal": 1800 }, "geometry": { "type": "Point", "coordinates": [ -116.2618332, 33.35606247 ] } }
]
}
